City,Cloudiness,Country,Date,Humidity,Lat,Lng,Max Temp,Wind Speed
taywarah,12,AF,1551580153,79,33.81,64.52,14.34,2.73
codrington,40,AG,1551580153,69,21.6,-52.43,78.8,10.29
kralendijk,56,AN,1551580154,74,13.16,-65.76,78.8,16.11
caconda,64,AO,1551580154,92,-13.39,15.44,57.81,2.95
menongue,24,AO,1551580154,97,-15.86,19.07,59.97,2.39
namibe,68,AO,1551580154,100,-14.74,3.63,76.71,2.28
soyo,92,AO,1551580154,99,-8.14,10.21,76.57,2.39
mar del plata,0,AR,1551580155,57,-42.5,-50.6,61.86,15.48
necochea,0,AR,1551580155,85,-43.56,-55.89,57.99,2.84
rafaela,0,AR,1551580155,58,-30.86,-61.09,70.0,4.0
rawson,20,AR,1551580155,58,-48.01,-58.03,62.89,7.99
san rafael,0,AR,1551580156,58,-36.04,-68.33,60.28,2.84
trelew,20,AR,1551580156,58,-42.57,-67.3,62.89,7.99
ushuaia,40,AR,1551580156,71,-86.71,-74.92,50.0,11.41
veinticinco de mayo,0,AR,1551580157,86,-35.76,-59.86,65.82,2.62
viedma,80,AR,1551580157,58,-39.95,-63.67,65.37,14.92
albany,90,AU,1551580157,69,-86.71,102.08,34.0,1.95
ballarat,92,AU,1551580157,14,-37.67,143.86,97.0,1.99
broome,92,AU,1551580158,76,-21.42,123.14,52.0,18.34
busselton,0,AU,1551580158,30,-50.11,85.17,80.01,9.66
byron bay,40,AU,1551580158,57,-29.0,156.78,84.0,14.99
carnarvon,0,AU,1551580158,76,-27.91,92.12,53.17,3.29
charters towers,12,AU,1551580159,75,-22.3,143.48,81.21,11.79
esperance,75,AU,1551580159,83,-34.23,123.39,78.01,8.05
flinders,40,AU,1551580159,48,-35.0,131.06,88.0,9.17
griffith,0,AU,1551580159,25,-31.77,145.35,89.6,9.17
gympie,80,AU,1551580160,91,-26.41,152.56,71.01,4.0
hobart,75,AU,1551580160,77,-87.5,139.22,69.8,8.05
karratha,20,AU,1551580160,38,-22.7,115.46,93.04,10.45
kiama,0,AU,1551580160,42,-37.51,156.99,86.0,9.17
mackay,5,AU,1551580160,44,-18.97,153.6,-0.41,11.41
moranbah,0,AU,1551580161,52,-22.21,146.37,85.21,14.25
mount isa,8,AU,1551580161,29,-25.55,139.01,89.6,13.87
nambucca heads,75,AU,1551580161,73,-30.9,153.31,79.0,8.05
nelson bay,90,AU,1551580161,45,-35.96,159.03,84.0,8.05
new norfolk,75,AU,1551580162,77,-68.77,131.32,69.8,8.05
nhulunbuy,75,AU,1551580162,70,-12.24,140.23,86.0,17.22
port hedland,92,AU,1551580162,46,-24.04,123.41,93.2,6.93
port lincoln,0,AU,1551580162,70,-45.09,128.51,74.64,13.69
portland,1,AU,1551580163,51,-41.31,140.68,42.8,12.75
rockhampton,90,AU,1551580163,45,-23.13,150.27,86.0,14.99
roma,0,AU,1551580163,93,-28.63,145.22,51.01,5.82
ulladulla,0,AU,1551580163,42,-37.82,153.18,86.0,9.17
yulara,0,AU,1551580164,15,-24.63,124.62,96.8,11.41
mugan,0,AZ,1551580164,15,39.93,48.77,33.69,3.18
bathsheba,20,BB,1551580164,69,16.54,-49.27,77.0,23.04
lalmohan,0,BD,1551580164,74,21.99,90.54,73.33,6.64
hounde,64,BF,1551580165,28,11.36,-3.82,67.48,6.98
trojan,64,BG,1551580165,76,42.95,24.81,-5.01,4.7
saint george,40,BM,1551580165,40,28.66,-55.24,51.8,12.75
atocha,75,BO,1551580166,82,-20.97,-66.7,55.4,3.36
puerto quijarro,20,BO,1551580166,83,-17.63,-56.77,78.42,2.51
robore,56,BO,1551580166,94,-18.82,-60.03,71.98,1.72
san borja,20,BO,1551580167,95,-14.8,-66.27,73.47,1.95
san ignacio,56,BO,1551580167,55,-15.4,-60.96,64.4,5.82
alto araguaia,36,BR,1551580168,94,-17.15,-52.9,68.34,2.84
arraial do cabo,75,BR,1551580168,88,-38.93,-33.99,77.0,5.82
beberibe,76,BR,1551580168,98,-3.39,-37.25,79.0,1.99
bonfim,8,BR,1551580168,94,2.03,-58.15,60.37,3.4
buriti bravo,32,BR,1551580169,97,-5.79,-43.93,70.77,1.95
cabedelo,20,BR,1551580169,94,-6.59,-33.39,77.0,2.24
carutapera,92,BR,1551580169,92,6.24,-42.66,77.74,6.64
caxias,20,BR,1551580169,94,-5.12,-43.63,75.2,6.93
cidreira,92,BR,1551580170,63,-48.09,-33.78,76.48,1.95
itarema,92,BR,1551580170,100,5.03,-35.4,73.24,2.62
jacareacanga,32,BR,1551580170,93,-5.54,-58.68,74.82,2.39
laguna,75,BR,1551580170,46,-40.15,-34.03,69.8,3.36
luzilandia,92,BR,1551580171,100,-3.48,-42.11,71.71,3.96
macau,88,BR,1551580171,98,-4.66,-36.07,71.4,2.95
manaus,20,BR,1551580171,78,-1.7,-60.24,82.4,2.24
maragogi,76,BR,1551580171,90,-17.63,-24.45,78.82,2.95
natal,40,BR,1551580172,83,-4.93,-32.98,80.6,2.24
oliveira,64,BR,1551580172,91,-20.71,-44.71,61.72,4.63
pauini,0,BR,1551580173,90,-7.7,-65.9,74.41,2.62
pimenta bueno,0,BR,1551580173,93,-11.45,-60.51,71.98,1.95
pitimbu,20,BR,1551580173,94,-6.99,-27.83,77.0,2.24
santa helena de goias,8,BR,1551580174,94,-18.14,-50.88,66.36,2.84
santa isabel do rio negro,12,BR,1551580174,89,0.74,-64.13,80.53,2.62
sao joao da barra,64,BR,1551580174,96,-26.09,-34.65,83.68,24.99
sao jose dos pinhais,20,BR,1551580174,93,-25.53,-49.29,70.0,2.24
sena madureira,0,BR,1551580175,88,-8.72,-68.76,76.12,2.62
terra santa,12,BR,1551580175,80,-0.81,-57.18,79.18,4.97
tutoia,92,BR,1551580175,100,-1.29,-42.16,72.57,2.95
urucara,24,BR,1551580175,90,-1.76,-58.41,77.25,2.73
varjota,92,BR,1551580176,100,-4.13,-40.45,69.24,4.18
vila velha,92,BR,1551580176,100,-26.17,-29.6,79.0,1.99
clarence town,90,BS,1551580176,45,22.02,-73.77,84.99,8.05
ghanzi,0,BW,1551580177,57,-22.21,21.36,65.19,2.84
lyuban,0,BY,1551580177,70,53.0,27.97,16.59,10.33
aklavik,20,CA,1551580177,45,78.68,-143.25,5.0,4.7
athabasca,0,CA,1551580177,59,56.02,-112.8,-7.76,9.22
burgeo,24,CA,1551580178,100,46.18,-57.99,23.02,10.33
clyde river,1,CA,1551580178,83,67.23,-74.49,-4.01,14.99
flin flon,48,CA,1551580178,60,59.48,-102.56,-2.86,9.66
fort nelson,5,CA,1551580179,64,57.52,-124.72,-0.41,2.24
grenfell,0,CA,1551580179,76,50.58,-102.71,80.04,3.4
grimshaw,20,CA,1551580179,57,55.67,-117.51,-8.0,3.36
hanna,0,CA,1551580180,74,52.07,-112.14,-15.0,7.0
hay river,20,CA,1551580180,63,58.66,-114.61,-9.41,4.63
hearst,68,CA,1551580180,72,50.91,-84.39,12.27,2.39
iqaluit,5,CA,1551580180,76,64.95,-80.39,-11.01,12.75
kenora,20,CA,1551580180,63,52.1,-93.69,-7.01,10.29
kindersley,20,CA,1551580181,69,50.94,-109.28,-11.21,20.8
la ronge,90,CA,1551580181,64,58.33,-103.9,-4.01,11.41
lac du bonnet,44,CA,1551580181,73,52.06,-95.63,-8.0,4.0
liverpool,40,CA,1551580182,66,40.84,-62.28,48.99,17.22
manitouwadge,20,CA,1551580182,50,49.15,-85.95,7.99,8.88
mayo,5,CA,1551580182,34,64.15,-138.04,17.6,5.82
moose factory,1,CA,1551580182,76,54.05,-79.35,-11.21,2.24
nipawin,75,CA,1551580183,69,53.92,-103.91,-7.61,8.05
norman wells,5,CA,1551580183,50,63.83,-130.2,5.0,4.7
pangnirtung,32,CA,1551580183,65,67.9,-64.47,-14.96,0.72
pemberton,0,CA,1551580183,48,51.03,-123.25,79.0,5.01
port hardy,20,CA,1551580184,65,43.92,-138.23,41.0,8.05
ridgetown,75,CA,1551580184,86,42.24,-81.74,28.0,8.05
riviere-au-renard,40,CA,1551580184,56,49.53,-64.59,14.0,5.82
sault sainte marie,75,CA,1551580184,67,47.19,-84.66,17.6,8.05
sept-iles,5,CA,1551580185,51,53.36,-65.98,12.2,6.93
slave lake,1,CA,1551580185,53,56.79,-114.53,-4.01,11.41
thompson,90,CA,1551580185,63,60.45,-100.1,-9.41,8.05
torbay,5,CA,1551580185,73,47.24,-39.81,23.0,11.41
tuktoyaktuk,20,CA,1551580186,64,81.23,-134.51,-0.41,14.99
ucluelet,20,CA,1551580186,70,47.78,-126.82,44.6,10.29
vanderhoof,0,CA,1551580186,43,53.49,-124.39,2.77,3.51
yellowknife,20,CA,1551580186,58,80.0,-103.8,-5.01,4.7
boende,80,CD,1551580187,96,0.63,20.76,71.04,2.17
goma,32,CD,1551580187,100,-0.84,28.47,54.66,2.51
kampene,80,CD,1551580187,97,-3.44,26.19,67.44,2.62
kasongo-lunda,88,CD,1551580187,95,-4.95,17.04,70.14,2.17
mbandaka,32,CD,1551580188,99,-0.64,17.39,71.17,1.16
alindao,8,CF,1551580188,94,4.99,20.66,70.59,5.3
nola,0,CF,1551580188,96,2.75,16.14,68.83,2.06
tabou,0,CI,1551580188,98,-3.48,-4.46,82.78,4.85
avarua,0,CK,1551580189,79,-62.87,-165.73,86.0,12.75
ancud,20,CL,1551580189,87,-39.94,-100.56,51.8,6.93
castro,20,CL,1551580189,87,-43.16,-90.36,51.8,6.93
coihaique,90,CL,1551580189,76,-46.55,-71.46,53.6,3.36
constitucion,5,CL,1551580189,15,-35.04,-74.61,73.4,18.34
lebu,0,CL,1551580190,67,-37.35,-92.05,59.0,2.24
punta arenas,75,CL,1551580190,81,-87.62,-102.29,50.0,5.82
vallenar,36,CL,1551580190,85,-28.57,-71.6,59.7,1.95
abong mbang,76,CM,1551580190,93,3.76,12.96,70.77,3.29
betare oya,8,CM,1551580191,87,6.1,13.93,69.46,3.96
altay,0,CN,1551580191,59,45.67,89.59,15.51,4.52
anjiang,20,CN,1551580191,100,27.25,110.06,44.98,3.62
fuling,24,CN,1551580192,100,29.97,107.95,51.15,2.62
gejiu,0,CN,1551580192,69,23.13,102.57,63.12,2.73
hami,0,CN,1551580192,46,45.47,97.09,38.91,3.62
huilong,32,CN,1551580192,93,32.82,125.05,46.33,3.18
jieshi,92,CN,1551580193,97,19.06,115.9,65.91,20.74
jinchang,0,CN,1551580193,66,41.05,103.37,23.92,3.85
lujiang,90,CN,1551580193,81,31.54,117.41,42.8,4.47
mengcheng,20,CN,1551580194,76,33.35,116.68,51.6,4.63
ningxiang,75,CN,1551580194,76,28.22,112.83,48.2,8.95
nongan,0,CN,1551580194,45,44.48,124.54,42.8,2.24
shaowu,92,CN,1551580194,92,27.36,117.16,49.71,2.62
shitanjing,0,CN,1551580195,43,41.62,104.04,43.63,3.4
simao,0,CN,1551580195,46,22.79,101.6,69.24,2.95
wanning,75,CN,1551580195,93,16.04,112.65,45.0,3.36
yongan,0,CN,1551580196,62,25.95,116.45,45.88,3.62
zhoucheng,90,CN,1551580196,81,24.26,101.65,44.6,4.47
miraflores,88,CO,1551580196,99,1.78,-71.84,53.04,1.95
mosquera,40,CO,1551580197,82,3.71,-78.6,57.2,3.36
tierralta,32,CO,1551580197,85,8.07,-76.0,77.52,7.65
santa cruz,90,CR,1551580197,93,7.77,-87.98,61.0,2.17
pinar del rio,0,CU,1551580197,85,23.16,-84.14,70.77,2.28
ponta do sol,92,CV,1551580197,97,17.15,-40.3,64.74,4.52
sal rei,0,CV,1551580198,72,15.63,-20.27,68.0,11.41
santa maria,0,CV,1551580198,82,18.04,-22.58,68.0,4.85
sao filipe,0,CV,1551580198,92,7.49,-25.4,71.31,15.82
melsungen,75,DE,1551580199,81,51.01,9.55,48.99,12.75
adrar,0,DZ,1551580199,30,27.15,-4.47,53.6,9.17
medea,20,DZ,1551580199,100,36.82,1.64,44.6,3.36
sidi ali,0,DZ,1551580199,87,35.53,0.97,42.73,2.62
muisne,32,EC,1551580200,93,0.98,-80.98,73.33,3.4
puerto ayora,20,EC,1551580200,100,5.9,-96.22,82.24,6.64
san cristobal,75,EC,1551580200,82,-10.52,-90.83,57.2,3.36
alexandria,90,EG,1551580201,82,31.9,29.74,61.0,5.82
asyut,0,EG,1551580201,71,25.48,29.05,50.0,10.29
esna,0,EG,1551580202,85,23.7,28.92,26.08,2.62
marsa matruh,75,EG,1551580202,54,32.19,26.32,59.0,6.93
barbastro,0,ES,1551580203,52,42.08,-0.02,45.0,9.17
llanes,44,ES,1551580203,74,43.93,-4.64,55.99,2.28
muros,75,ES,1551580207,81,44.82,-16.41,57.99,16.11
puerto del rosario,68,ES,1551580207,72,25.77,-11.31,64.4,13.87
dubti,0,ET,1551580207,78,11.52,40.7,66.81,10.78
gimbi,0,ET,1551580208,84,9.53,36.32,44.76,2.17
lappeenranta,90,FI,1551580208,85,61.57,27.96,18.0,10.29
klaksvik,92,FO,1551580208,87,77.36,-6.67,42.8,9.17
firminy,0,FR,1551580209,93,45.22,4.33,39.2,6.93
hyeres,0,FR,1551580209,65,42.61,6.28,52.0,1.12
meaux,75,FR,1551580210,81,49.03,2.87,51.01,21.92
booue,92,GA,1551580210,98,-0.6,12.16,73.29,2.06
ndjole,92,GA,1551580210,94,-0.15,10.39,71.62,2.51
port-gentil,56,GA,1551580210,100,-2.08,6.28,78.15,2.62
cayenne,92,GF,1551580211,88,11.77,-43.28,75.2,2.24
saint-georges,76,GF,1551580211,74,6.54,-45.86,23.0,2.84
axim,36,GH,1551580211,98,-4.99,-2.03,82.69,8.77
tarkwa,36,GH,1551580211,83,5.17,-2.09,75.67,3.85
ilulissat,88,GL,1551580212,78,70.91,-48.14,15.8,8.05
nanortalik,20,GL,1551580212,96,51.56,-39.3,28.33,2.62
narsaq,20,GL,1551580212,46,77.43,-61.87,28.4,8.05
nuuk,92,GL,1551580213,92,61.81,-53.66,23.0,8.05
paamiut,8,GL,1551580213,93,63.38,-47.44,28.56,5.64
qaanaaq,0,GL,1551580213,71,85.41,-66.66,5.56,18.72
sisimiut,92,GL,1551580213,87,66.73,-56.08,5.52,1.95
tasiilaq,80,GL,1551580214,85,68.61,-35.46,17.6,2.24
upernavik,56,GL,1551580214,100,77.84,-58.94,1.87,4.63
kankan,8,GN,1551580214,61,10.25,-9.15,61.32,2.73
saint-francois,0,GP,1551580214,93,17.71,-57.03,39.2,4.7
iztapa,12,GT,1551580215,93,13.36,-90.69,80.98,6.08
atambua,12,ID,1551580215,99,-7.29,126.35,84.09,2.95
biak,8,ID,1551580215,84,-0.41,139.0,84.76,1.16
kefamenanu,12,ID,1551580216,90,-8.47,123.75,78.15,1.95
kupang,20,ID,1551580216,89,-13.49,121.83,86.29,8.43
merauke,36,ID,1551580216,97,-7.66,137.87,85.12,4.18
meulaboh,64,ID,1551580217,100,3.21,97.03,82.56,2.62
padang,75,ID,1551580217,88,-1.37,97.87,80.6,3.36
pontianak,20,ID,1551580217,70,-0.9,109.01,84.2,3.36
sibolga,44,ID,1551580217,93,-0.52,94.88,76.57,2.39
sungaipenuh,92,ID,1551580218,86,-1.07,102.23,73.33,0.94
tarakan,44,ID,1551580218,86,3.03,117.8,83.55,3.18
ternate,20,ID,1551580218,57,2.86,127.45,86.0,2.24
waingapu,8,ID,1551580218,82,-13.13,120.76,85.39,4.52
dingle,32,IE,1551580219,63,51.97,-11.59,84.31,10.45
westport,80,IE,1551580219,69,57.19,-12.55,48.0,13.0
akhnur,40,IN,1551580219,93,33.14,74.64,51.8,2.28
along,0,IN,1551580219,54,29.69,95.06,55.96,1.83
amalapuram,80,IN,1551580220,74,14.98,82.85,78.8,3.36
asarganj,0,IN,1551580220,50,25.21,86.68,67.17,3.4
basti,100,IN,1551580220,58,26.68,82.75,66.72,2.39
dwarka,75,IN,1551580221,93,19.83,67.25,64.0,4.7
golaghat,0,IN,1551580221,68,26.52,94.16,66.49,3.4
kavaratti,12,IN,1551580221,100,12.54,66.88,81.39,8.99
macherla,20,IN,1551580223,78,16.59,79.66,76.71,6.08
mamallapuram,40,IN,1551580224,83,11.98,82.02,81.0,5.82
nokha,0,IN,1551580227,56,27.55,73.0,61.63,6.53
pasighat,0,IN,1551580227,57,31.75,96.21,59.79,1.95
port blair,40,IN,1551580228,94,9.69,94.52,73.4,2.24
baghdad,0,IQ,1551580228,66,30.97,43.91,48.2,4.7
bandar-e anzali,0,IR,1551580228,100,37.94,49.7,39.2,2.95
chalus,0,IR,1551580229,87,38.32,51.78,44.6,7.2
kangavar,0,IR,1551580229,79,34.3,48.01,24.8,6.93
sabzevar,0,IR,1551580229,69,35.25,57.99,28.24,1.61
susangerd,0,IR,1551580229,76,31.72,48.49,50.0,2.24
dalvik,92,IS,1551580230,93,69.14,-18.63,36.0,13.87
grindavik,0,IS,1551580230,86,55.97,-26.54,30.2,14.99
hofn,80,IS,1551580230,100,62.97,-17.06,37.56,22.3
husavik,36,IS,1551580230,73,77.84,-7.46,-9.01,5.01
vestmannaeyjar,0,IS,1551580231,100,56.5,-16.97,30.49,8.99
aosta,0,IT,1551580231,90,45.52,6.99,48.0,2.24
syracuse,90,IT,1551580231,100,36.99,15.95,32.0,9.17
volterra,0,IT,1551580232,93,43.31,10.7,48.0,3.36
asahikawa,0,JP,1551580232,79,43.84,142.84,32.0,12.75
gotsu,75,JP,1551580233,93,37.46,130.38,48.2,5.82
gushikawa,75,JP,1551580233,94,22.29,134.76,77.0,14.99
hasaki,75,JP,1551580233,93,29.79,156.85,45.0,8.05
katsuura,90,JP,1551580233,53,19.35,148.18,51.01,4.7
muroto,75,JP,1551580233,76,29.01,135.71,53.6,5.82
nago,0,JP,1551580234,86,26.27,128.94,46.99,2.24
naze,40,JP,1551580235,94,22.93,136.82,78.8,3.06
nishihara,75,JP,1551580235,93,20.3,133.11,46.0,4.7
obihiro,0,JP,1551580235,50,42.63,143.46,32.0,4.7
shimoda,75,JP,1551580236,87,33.71,139.77,48.99,19.46
shingu,75,JP,1551580237,76,27.61,138.1,51.8,4.7
tateyama,0,JP,1551580237,49,31.78,140.67,57.99,1.12
uwajima,75,JP,1551580238,93,33.21,132.4,48.2,4.7
sisophon,76,KH,1551580238,74,13.65,102.86,85.26,5.97
butaritari,76,KI,1551580238,100,3.45,174.57,82.69,16.71
fomboni,48,KM,1551580240,100,-12.19,43.82,82.78,12.91
aksay,0,KZ,1551580240,80,50.89,52.35,30.2,8.95
astana,90,KZ,1551580241,91,50.35,71.45,32.0,31.32
emba,90,KZ,1551580241,76,48.69,58.33,57.2,2.24
esik,90,KZ,1551580241,93,43.31,77.88,41.0,6.71
fort-shevchenko,92,KZ,1551580243,100,45.38,50.16,36.57,12.46
hambantota,40,LK,1551580244,100,-0.25,84.12,75.2,5.82
harper,90,LR,1551580244,93,4.19,-8.58,59.0,4.7
robertsport,12,LR,1551580244,100,5.55,-12.45,81.3,8.99
awbari,0,LY,1551580244,75,28.88,12.95,44.85,3.85
awjilah,0,LY,1551580245,89,26.26,18.83,47.32,8.55
gat,0,LY,1551580245,63,24.73,6.49,64.4,16.11
jalu,0,LY,1551580245,84,29.95,22.89,43.41,6.2
marzuq,0,LY,1551580245,86,23.31,16.5,50.97,2.51
waddan,0,LY,1551580246,77,28.18,18.06,34.27,3.06
agadir,0,MA,1551580247,93,31.39,-11.5,51.8,5.82
martil,0,MA,1551580247,87,35.47,-4.88,55.4,6.93
ambilobe,32,MG,1551580247,89,-9.98,50.1,74.82,4.41
anjozorobe,75,MG,1551580249,88,-18.28,47.63,64.4,3.36
antalaha,92,MG,1551580250,100,-15.85,52.49,75.54,4.52
beloha,0,MG,1551580250,90,-32.1,40.11,73.69,3.51
sambava,88,MG,1551580250,100,-11.31,55.04,77.61,8.88
douentza,8,ML,1551580251,70,15.05,-3.02,47.86,2.73
nara,75,ML,1551580251,43,17.51,-8.21,53.6,1.12
taoudenni,0,ML,1551580251,41,24.8,-6.52,46.51,7.43
lashio,0,MM,1551580252,66,22.1,98.81,64.92,2.51
maubin,0,MM,1551580252,73,16.79,95.49,77.0,2.24
mogok,0,MM,1551580252,66,23.02,96.54,67.8,2.06
baruun-urt,8,MN,1551580253,35,46.74,115.39,36.61,7.99
suhbaatar,44,MN,1551580253,59,49.92,105.73,29.41,4.41
nouadhibou,0,MR,1551580253,55,21.87,-21.07,64.4,17.22
bambous virieux,75,MU,1551580253,88,-26.27,67.37,80.6,11.41
grand gaube,75,MU,1551580253,88,-12.81,62.02,80.6,11.41
mahebourg,75,MU,1551580254,88,-53.81,79.83,80.6,11.41
souillac,75,MU,1551580254,100,-22.18,58.27,48.2,4.7
eydhafushi,20,MV,1551580254,99,4.87,71.04,82.65,13.35
hithadhoo,24,MV,1551580254,100,-10.27,78.27,82.74,16.15
kudahuvadhoo,92,MV,1551580255,100,3.09,62.61,82.24,12.57
thinadhoo,56,MV,1551580255,100,-0.12,68.1,82.74,14.36
kasungu,92,MW,1551580255,99,-12.99,33.33,65.59,2.95
cabo san lucas,5,MX,1551580257,50,13.88,-118.94,77.0,9.44
gonzalez,80,MX,1551580257,77,22.6,-98.73,70.99,2.62
guerrero negro,12,MX,1551580258,77,20.91,-125.26,61.86,10.11
praxedis guerrero,1,MX,1551580258,15,31.19,-104.85,73.4,24.16
san jeronimo,64,MX,1551580258,90,16.03,-101.14,44.71,1.72
san patricio,0,MX,1551580259,72,8.09,-114.19,72.57,2.51
san quintin,32,MX,1551580259,63,29.66,-117.49,79.59,4.18
labuan,75,MY,1551580259,70,7.52,113.85,86.0,3.36
mersing,8,MY,1551580260,69,3.57,105.48,85.17,9.1
angoche,92,MZ,1551580260,100,-17.19,40.61,76.48,11.01
inhambane,76,MZ,1551580261,98,-22.07,38.64,78.73,9.22
manjacaze,0,MZ,1551580261,82,-24.25,34.21,76.39,8.21
luderitz,0,NA,1551580261,81,-31.73,6.77,62.89,17.83
opuwo,80,NA,1551580261,93,-20.23,10.25,62.49,2.17
swakopmund,0,NA,1551580262,77,-22.82,14.61,66.99,3.36
dumbea,90,NC,1551580262,74,-22.12,166.5,82.4,19.46
noumea,90,NC,1551580262,74,-26.55,163.51,82.4,19.46
vao,56,NC,1551580262,75,-24.86,167.41,23.02,7.87
abalak,0,NE,1551580262,49,16.08,6.73,54.61,8.21
gaya,40,NE,1551580263,82,12.43,3.37,59.0,4.7
ouallam,44,NE,1551580263,28,15.52,2.56,63.43,11.56
tanout,12,NE,1551580264,20,15.66,8.45,70.95,8.32
biu,36,NG,1551580264,25,10.99,11.85,78.01,8.55
jos,0,NG,1551580264,68,9.89,8.98,61.95,2.28
monster,90,NL,1551580265,81,52.64,3.51,51.8,20.8
batsfjord,64,NO,1551580265,100,72.59,30.65,29.37,22.53
berlevag,68,NO,1551580266,100,78.57,29.6,24.28,12.24
hammerfest,80,NO,1551580266,85,71.75,23.64,24.8,19.46
karasjok,0,NO,1551580266,65,68.93,26.23,8.6,28.86
mehamn,76,NO,1551580267,92,88.29,30.96,23.25,7.65
roald,64,NO,1551580267,80,67.53,3.81,41.0,11.41
vardo,90,NO,1551580267,56,80.42,35.98,44.6,9.17
khandbari,36,NP,1551580268,66,31.09,87.34,29.1,1.61
alofi,100,NU,1551580268,70,-20.76,-169.26,86.0,8.05
ahipara,0,NZ,1551580268,60,-35.59,165.57,75.36,8.55
bluff,76,NZ,1551580268,39,-64.26,166.99,88.81,14.03
dunedin,0,NZ,1551580268,57,-54.51,176.43,66.99,11.01
kaeo,0,NZ,1551580269,59,-28.2,173.25,78.01,8.01
kaitangata,0,NZ,1551580269,69,-80.84,176.52,70.59,4.85
murchison,8,NZ,1551580270,16,-42.17,172.47,98.01,7.99
russell,0,NZ,1551580270,38,-30.96,176.93,75.2,3.36
seddon,0,NZ,1551580270,60,-42.77,174.19,77.0,5.01
te anau,0,NZ,1551580271,29,-38.45,160.87,73.06,4.97
tuatapere,0,NZ,1551580271,67,-56.69,159.35,66.99,15.99
salalah,75,OM,1551580271,24,15.27,52.22,78.8,8.05
sur,0,OM,1551580271,100,14.72,62.59,65.86,16.71
pedasi,0,PA,1551580272,89,6.7,-80.08,79.63,15.93
chicama,75,PE,1551580272,83,-12.62,-86.18,77.0,13.87
hualmay,12,PE,1551580273,91,-18.55,-91.45,67.66,4.29
huarmey,48,PE,1551580273,85,-12.93,-82.81,67.39,3.4
lima,0,PE,1551580273,65,-19.66,-90.5,79.0,16.11
picota,40,PE,1551580274,290,-7.09,-76.15,62.6,1.83
pisco,0,PE,1551580274,78,-24.77,-93.7,73.4,18.34
sechura,20,PE,1551580274,80,-8.44,-84.77,76.39,8.66
atuona,0,PF,1551580275,100,-7.21,-133.59,81.52,8.88
avera,40,PF,1551580276,93,-27.22,-153.42,66.2,3.36
faanui,44,PF,1551580276,100,-5.32,-152.91,83.37,6.2
mataura,0,PF,1551580276,67,-29.68,-145.86,66.99,15.99
rikitea,0,PF,1551580276,100,-52.19,-126.66,79.27,11.23
tautira,20,PF,1551580277,62,-19.39,-147.8,89.6,6.93
teahupoo,20,PF,1551580277,62,-19.37,-147.9,89.6,4.7
vaitape,44,PF,1551580277,100,-19.06,-155.53,84.13,7.31
kavieng,32,PG,1551580277,100,8.37,152.11,83.82,3.96
kimbe,64,PG,1551580278,93,-3.9,148.63,84.27,6.08
kiunga,36,PG,1551580278,84,-6.4,140.58,81.79,2.28
samarai,8,PG,1551580280,100,-11.84,152.41,81.39,2.62
catuday,8,PH,1551580280,93,16.39,119.44,78.46,6.31
san vicente,20,PH,1551580282,78,18.68,123.93,80.6,4.7
tagusao,0,PH,1551580282,72,10.61,116.89,84.36,6.98
chaman,44,PK,1551580283,95,31.82,67.32,39.81,3.4
garh maharaja,80,PK,1551580283,99,30.81,71.8,53.89,10.0
jiwani,12,PK,1551580283,100,24.39,61.25,55.51,4.18
peshawar,92,PK,1551580284,98,33.98,71.55,42.19,3.51
shinpokh,75,PK,1551580284,87,34.03,71.15,46.4,3.36
slawno,88,PL,1551580284,100,54.34,16.57,37.0,5.82
saint-pierre,75,PM,1551580285,87,38.86,-52.79,48.2,14.99
camacha,40,PT,1551580286,87,35.26,-17.28,62.6,2.24
lagoa,0,PT,1551580286,87,42.86,-27.03,54.0,2.24
ponta delgada,75,PT,1551580286,93,34.61,-27.47,62.6,26.4
praia da vitoria,20,PT,1551580286,87,42.7,-23.86,57.99,27.11
ribeira grande,32,PT,1551580287,99,28.57,-42.55,59.7,24.54
vila franca do campo,75,PT,1551580288,93,42.08,-23.1,62.6,26.4
airai,36,PW,1551580288,71,4.38,139.78,81.52,1.72
kloulklubed,75,PW,1551580288,78,5.92,133.89,82.4,5.82
khor,0,QA,1551580289,36,25.55,52.18,37.42,5.97
saint-joseph,0,RE,1551580289,81,-28.21,53.75,50.0,4.7
saint-philippe,90,RE,1551580289,63,-44.07,65.65,27.0,5.82
madaras,0,RO,1551580290,80,46.8,21.69,41.0,4.7
aldan,44,RU,1551580290,57,58.5,123.71,12.36,3.62
alekseyevsk,88,RU,1551580290,82,58.82,109.41,24.64,4.07
ardatov,8,RU,1551580292,77,55.15,42.89,6.6,7.65
arman,20,RU,1551580292,61,56.67,148.01,8.98,4.52
arzgir,32,RU,1551580292,89,45.61,44.13,25.5,11.34
aykhal,64,RU,1551580293,77,67.21,108.63,3.45,2.95
belokurikha,36,RU,1551580293,72,52.07,85.04,18.61,3.96
birobidzhan,0,RU,1551580295,52,49.35,133.18,34.86,3.74
boguchany,48,RU,1551580295,79,59.39,97.91,21.67,3.51
borogontsy,0,RU,1551580296,45,65.25,131.62,-7.36,3.85
chara,40,RU,1551580296,40,56.07,116.87,51.8,12.75
cherskiy,48,RU,1551580296,76,87.54,157.48,-3.76,8.88
chokurdakh,68,RU,1551580296,67,82.39,151.96,-9.34,16.37
deputatskiy,8,RU,1551580297,70,68.15,139.1,-11.59,3.96
dikson,48,RU,1551580297,82,79.15,72.39,-5.47,3.29
egvekinot,36,RU,1551580297,88,57.12,-179.29,20.82,6.76
ekhabi,20,RU,1551580297,100,53.2,146.87,5.34,7.43
igrim,68,RU,1551580298,78,64.17,62.4,6.51,8.43
irbeyskoye,88,RU,1551580298,93,55.46,95.52,24.73,5.97
isetskoye,88,RU,1551580298,87,56.36,65.02,19.29,8.66
iskateley,64,RU,1551580299,79,67.79,54.96,10.2,13.8
kalininsk,36,RU,1551580299,79,51.26,44.63,9.84,10.0
kambileyevskoye,88,RU,1551580299,98,43.06,44.78,29.41,2.73
kamenka,48,RU,1551580299,83,43.37,137.3,10.51,8.32
khasan,0,RU,1551580300,57,39.56,131.96,46.87,6.76
khatanga,0,RU,1551580300,43,73.79,101.36,-14.69,2.84
khovu-aksy,0,RU,1551580301,74,51.28,93.26,13.17,3.4
kodino,88,RU,1551580301,83,63.61,39.43,16.81,6.76
komsomolskiy,44,RU,1551580301,74,75.78,175.03,-3.49,10.22
krasnogorsk,80,RU,1551580301,78,48.48,142.06,21.0,15.66
lavrentiya,92,RU,1551580302,97,68.89,-173.14,23.92,6.76
leningradskiy,32,RU,1551580302,86,70.38,177.98,2.37,3.18
linda,90,RU,1551580303,93,56.93,44.1,55.4,3.51
loukhi,0,RU,1551580303,62,65.27,32.45,0.25,2.95
mnogovershinnyy,0,RU,1551580303,58,56.4,141.06,14.92,2.73
monastyrshchina,48,RU,1551580304,85,53.71,31.6,16.27,16.49
muzhi,0,RU,1551580304,29,65.72,65.68,-20.09,3.29
neryungri,44,RU,1551580305,74,57.77,123.31,15.82,4.41
nikolskoye,75,RU,1551580305,73,47.04,167.94,23.0,20.13
nizhniy tsasuchey,0,RU,1551580305,36,49.16,114.96,37.2,9.89
novoagansk,48,RU,1551580306,82,62.3,77.17,22.39,6.64
nyrob,88,RU,1551580306,80,61.66,57.49,14.38,12.24
oktyabrskoye,20,RU,1551580306,92,63.36,67.19,18.0,6.71
ostrovnoy,0,RU,1551580306,79,71.16,39.82,0.88,10.45
pangody,0,RU,1551580307,61,65.23,74.86,-7.81,6.42
petropavlovsk-kamchatskiy,0,RU,1551580307,32,52.09,161.98,24.8,20.13
pevek,0,RU,1551580307,72,88.85,167.09,-6.41,6.64
povenets,88,RU,1551580308,87,62.61,35.2,21.45,10.78
preobrazheniye,0,RU,1551580309,42,40.59,135.97,47.46,4.18
provideniya,24,RU,1551580309,94,56.53,-177.91,27.12,10.0
pyatovskiy,48,RU,1551580309,67,54.66,36.09,17.6,8.95
saskylakh,48,RU,1551580309,51,85.16,120.02,-18.11,2.95
severo-kurilsk,12,RU,1551580310,100,36.55,162.21,26.94,14.7
solnechnyy,0,RU,1551580310,64,58.39,137.19,26.85,3.62
sovetskiy,0,RU,1551580310,71,71.32,66.18,0.34,7.09
srednekolymsk,48,RU,1551580311,51,74.8,155.99,-3.89,3.74
suntar,8,RU,1551580311,66,60.46,116.99,14.34,3.74
svetlogorsk,90,RU,1551580311,85,67.68,92.91,17.6,8.95
talnakh,80,RU,1551580312,88,70.97,88.21,16.63,21.07
tarko-sale,88,RU,1551580312,92,63.22,78.52,21.81,5.97
tiksi,8,RU,1551580312,53,78.29,126.7,-10.64,5.41
tilichiki,76,RU,1551580313,83,60.91,171.46,2.55,6.76
togur,36,RU,1551580313,82,58.23,82.54,9.66,9.44
ust-tsilma,0,RU,1551580314,49,66.41,51.58,-9.34,5.19
verkhnevilyuysk,0,RU,1551580314,67,62.32,120.58,5.11,3.51
vitim,80,RU,1551580315,82,59.87,112.09,21.31,3.29
vuktyl,8,RU,1551580315,57,62.88,58.31,-12.49,2.95
yablonovo,75,RU,1551580315,85,51.82,112.8,17.6,6.71
yagodnoye,0,RU,1551580315,69,63.43,149.75,-4.12,2.84
yerofey pavlovich,8,RU,1551580316,74,54.44,121.62,24.15,3.51
abha,0,SA,1551580316,87,21.34,43.68,53.6,6.93
riyadh,8,SA,1551580316,58,23.15,44.64,39.94,4.29
lata,64,SB,1551580317,100,-8.43,168.24,38.86,1.72
victoria,75,SC,1551580317,78,-4.16,51.48,84.2,3.18
bara,24,SD,1551580317,26,14.47,29.83,78.24,9.66
ostersund,92,SE,1551580318,79,63.59,16.14,21.99,14.99
sundsvall,92,SE,1551580318,62,62.45,16.9,26.01,6.93
visby,92,SE,1551580319,93,56.22,18.44,37.0,13.87
georgetown,75,SH,1551580319,78,-6.94,-19.61,80.6,6.93
jamestown,24,SH,1551580319,19,-16.96,-3.58,96.82,11.79
kamnik,20,SI,1551580319,91,46.39,14.65,42.01,2.24
longyearbyen,40,SJ,1551580320,77,78.04,21.19,1.4,8.05
buedu,12,SL,1551580320,29,8.47,-10.35,71.08,7.43
goderich,0,SL,1551580320,82,5.92,-15.36,28.0,8.99
bandarbeyla,0,SO,1551580321,100,6.21,55.25,76.66,4.63
eyl,92,SO,1551580323,100,7.72,50.12,75.58,6.08
mogadishu,12,SO,1551580324,100,-0.12,47.05,78.87,8.66
chiang rai,0,TH,1551580324,77,19.75,99.14,69.8,3.36
gazanjyk,0,TM,1551580324,79,39.29,56.61,32.02,2.39
murgab,40,TM,1551580325,93,39.14,60.97,42.8,4.7
vaini,0,TO,1551580325,55,-56.05,-168.48,60.8,1.72
akdagmadeni,32,TR,1551580326,80,39.85,36.28,19.96,2.51
mugla,90,TR,1551580327,100,37.32,28.56,37.4,6.93
terme,75,TR,1551580327,75,41.66,37.11,41.0,13.87
laela,24,TZ,1551580327,88,-7.76,32.56,54.16,2.17
mbeya,32,TZ,1551580328,90,-8.24,33.18,57.94,2.17
utete,44,TZ,1551580328,95,-8.11,38.07,74.82,2.39
poninka,0,UA,1551580329,74,50.45,27.32,15.06,3.29
sokyryany,64,UA,1551580329,86,48.53,27.39,17.01,2.95
ahuimanu,40,US,1551580329,60,35.18,-152.69,78.8,11.41
anderson,1,US,1551580330,93,34.49,-82.51,57.99,4.7
astoria,1,US,1551580330,70,46.37,-125.23,48.0,9.17
barrow,0,US,1551580330,87,76.75,-166.09,53.53,6.42
bethel,75,US,1551580330,86,44.06,-168.57,35.6,6.93
brookhaven,90,US,1551580331,99,31.83,-90.81,39.0,5.97
cedar rapids,1,US,1551580331,72,41.92,-92.15,21.2,11.41
charleston,90,US,1551580331,93,38.52,-81.5,41.0,3.4
eureka,90,US,1551580332,81,40.87,-134.83,53.01,4.7
fairbanks,90,US,1551580332,85,65.4,-145.98,25.0,4.7
fort walton beach,90,US,1551580332,94,30.18,-86.62,69.8,3.51
fortuna,0,US,1551580332,75,39.36,-136.36,53.01,3.36
glens falls,90,US,1551580332,86,43.57,-73.65,33.01,2.28
great falls,20,US,1551580333,90,47.1,-111.44,-15.0,3.18
green valley,90,US,1551580333,68,31.71,-111.29,30.99,6.93
half moon bay,90,US,1551580333,100,28.96,-136.13,59.0,9.17
hamilton,75,US,1551580334,88,46.54,-114.25,69.8,19.46
hilo,1,US,1551580334,64,10.23,-143.14,75.2,12.75
kapaa,1,US,1551580334,57,33.53,-157.21,77.0,17.22
kodiak,90,US,1551580334,52,47.8,-160.1,24.01,19.46
lompoc,90,US,1551580334,93,24.95,-133.06,59.0,6.93
niles,75,US,1551580335,73,41.95,-86.18,30.2,3.36
ocean springs,75,US,1551580335,88,30.62,-88.9,68.0,4.7
oneonta,88,US,1551580335,89,42.01,-74.75,32.0,1.01
pacific grove,90,US,1551580336,93,33.71,-125.99,59.0,5.97
palmer,0,US,1551580336,61,61.81,-147.98,91.0,16.11
pascagoula,75,US,1551580337,88,29.04,-88.31,66.2,4.7
pittsburg,90,US,1551580337,93,37.77,-94.82,57.2,1.95
rancho palos verdes,90,US,1551580337,87,31.56,-119.91,62.01,6.93
rantoul,90,US,1551580338,74,40.48,-88.36,30.99,9.17
rawlins,90,US,1551580338,78,41.42,-107.43,15.8,18.34
redlands,75,US,1551580338,93,38.68,-109.1,62.6,6.93
redmond,1,US,1551580338,45,43.7,-119.86,45.0,6.93
shelton,1,US,1551580339,42,47.14,-123.28,46.4,4.7
sitka,92,US,1551580339,84,50.72,-136.41,23.0,5.99
starkville,75,US,1551580339,81,33.25,-89.4,50.0,4.7
steger,90,US,1551580340,79,41.39,-87.69,30.2,6.2
valley city,90,US,1551580340,75,47.31,-98.34,-9.41,13.87
washington,90,US,1551580340,96,40.87,-89.19,46.0,5.08
west wendover,90,US,1551580341,86,40.35,-114.32,33.8,4.7
wichita falls,90,US,1551580341,100,33.99,-98.03,37.99,12.75
chuy,0,UY,1551580342,86,-65.47,-21.35,64.33,11.23
rocha,0,UY,1551580342,84,-36.34,-52.68,58.66,6.64
andijon,90,UZ,1551580343,100,40.34,72.71,46.4,4.47
gazli,0,UZ,1551580343,78,40.86,63.26,33.69,3.4
kogon,0,UZ,1551580343,93,39.45,64.76,41.0,6.93
road town,1,VG,1551580344,69,25.02,-63.61,78.8,11.41
ca mau,0,VN,1551580344,66,8.8,105.32,85.71,8.66
isangel,36,VU,1551580344,93,-22.3,177.13,84.0,10.45
luganville,32,VU,1551580345,95,-16.48,164.89,83.19,16.04
sola,90,VU,1551580345,85,-11.58,169.9,18.0,14.99
taga,75,WS,1551580346,100,-14.82,-172.61,52.0,3.36
dzaoudzi,40,YT,1551580346,83,-11.65,47.29,82.4,12.75
bredasdorp,68,ZA,1551580346,88,-87.95,28.38,66.0,3.36
calvinia,0,ZA,1551580347,88,-30.29,20.18,50.16,2.73
cape town,0,ZA,1551580347,93,-60.97,-13.3,68.0,5.82
east london,92,ZA,1551580347,100,-62.22,45.43,70.09,4.52
hermanus,24,ZA,1551580347,89,-59.04,10.76,66.0,1.01
kruisfontein,0,ZA,1551580348,87,-75.81,28.0,59.29,2.39
margate,75,ZA,1551580348,77,-41.02,42.45,69.8,8.05
port alfred,44,ZA,1551580348,79,-80.9,53.69,66.99,1.99
port elizabeth,1,ZA,1551580348,86,-52.99,29.12,37.99,4.7
richards bay,92,ZA,1551580349,100,-28.77,34.18,71.44,10.33
saldanha,12,ZA,1551580349,78,-34.13,16.39,36.16,5.64
kalabo,48,ZM,1551580350,61,-14.86,20.35,70.77,3.06
mkushi,12,ZM,1551580350,88,-13.55,29.38,62.89,6.2
